City_ID,City,Cloudiness,Country,Date,Humidity,Lat,Lng,Max Temp,Wind Speed
0,busselton,49,AU,1562272224,98,-33.64,115.35,48.99,27.07
1,namibe,0,AO,1562272224,76,-15.19,12.15,69.94,7.4
2,new norfolk,90,AU,1562272224,93,-42.78,147.06,39.99,5.82
3,ilinskaya,0,RU,1562272224,81,45.72,40.72,65.51,4.83
4,barrow,84,AR,1562272225,74,-38.31,-60.23,40.17,12.64
5,karak,0,JO,1562272225,53,31.18,35.7,75.2,9.17
6,crateus,27,BR,1562272030,56,-5.18,-40.68,80.04,4.94
7,bluff,100,AU,1562271926,81,-23.58,149.07,59.79,25.14
8,atuona,8,PF,1562272225,71,-9.8,-139.03,80.31,10.63
9,kutum,21,SD,1562272226,34,14.2,24.66,85.13,6.67
10,mataura,59,NZ,1562272226,95,-46.19,168.86,41.0,1.01
11,tiarei,75,PF,1562272226,53,-17.53,-149.33,77.0,12.75
12,rikitea,99,PF,1562272226,67,-23.12,-134.97,66.81,23.11
13,pierre,75,US,1562272227,73,44.37,-100.35,77.0,20.8
14,somerset,1,US,1562272054,33,41.77,-71.13,91.4,8.05
15,mar del plata,0,AR,1562271949,71,-46.43,-67.52,32.05,5.97
16,jumla,89,NP,1562272227,95,29.28,82.18,57.74,1.52
17,senno,26,RU,1562272228,62,57.76,27.95,55.4,8.95
18,hermanus,100,ZA,1562272228,98,-34.42,19.24,54.0,3.0
19,jamestown,0,AU,1562272213,76,-33.21,138.6,51.33,15.28
20,butaritari,0,KI,1562272228,69,3.07,172.79,84.02,7.09
21,cape town,90,ZA,1562272154,93,-33.93,18.42,57.0,8.05
22,sampit,33,ID,1562272229,97,-2.54,112.95,72.05,2.15
23,castro,40,CL,1562272229,70,-42.48,-73.76,48.2,2.24
24,alice springs,0,AU,1562272007,64,-23.7,133.88,39.2,5.82
25,shirpur,100,IN,1562272229,84,21.35,74.88,79.1,17.92
26,ancud,40,CL,1562272230,70,-41.87,-73.83,48.2,2.24
27,riyadh,0,SA,1562272230,8,24.63,46.72,95.0,6.93
28,xining,16,CN,1562272230,60,36.62,101.77,51.24,2.66
29,lat yao,100,TH,1562272231,85,15.75,99.79,76.1,4.47
30,darnah,0,LY,1562272231,88,32.77,22.64,76.28,18.88
31,ligayan,89,PH,1562272231,75,4.65,119.47,80.7,5.3
32,awbari,0,LY,1562272231,10,26.59,12.77,93.23,11.21
33,hobart,90,AU,1562272232,93,-42.88,147.33,39.99,5.82
34,bambous virieux,40,MU,1562272232,78,-20.34,57.76,71.6,6.93
35,rio grande,0,BR,1562272232,50,-32.03,-52.1,51.8,9.17
36,port alfred,42,ZA,1562272232,77,-33.59,26.89,59.0,4.0
37,punta arenas,75,CL,1562272233,81,-53.16,-70.91,35.6,11.41
38,huoqiu,40,CN,1562272233,90,32.34,116.27,71.58,2.73
39,bredasdorp,100,ZA,1562272233,93,-34.53,20.04,55.4,6.93
40,mende,0,FR,1562272234,50,44.52,3.5,77.0,2.24
41,lebu,20,ET,1562272234,87,8.96,38.73,57.2,3.36
42,doorn,90,NL,1562272234,55,52.03,5.35,66.99,2.24
43,mahebourg,40,MU,1562272235,78,-20.41,57.7,71.6,6.93
44,dikson,74,RU,1562272235,90,73.51,80.55,35.79,12.82
45,saint-philippe,1,CA,1562272235,38,45.36,-73.48,93.2,13.87
46,husavik,68,CA,1562271975,20,50.56,-96.99,80.01,5.99
47,aklavik,90,CA,1562272236,82,68.22,-135.01,57.2,13.87
48,lata,64,IN,1562271996,91,30.78,78.62,46.92,0.89
49,kodinsk,0,RU,1562272236,51,58.6,99.18,56.98,2.01
50,albany,75,US,1562272040,38,42.65,-73.75,91.99,5.82
51,chuy,15,UY,1562272236,67,-33.69,-53.46,44.87,18.39
52,tyup,0,KG,1562272237,84,42.73,78.36,38.93,3.65
53,angoche,0,MZ,1562272237,90,-16.23,39.91,66.5,3.74
54,morondava,0,MG,1562272237,60,-20.3,44.28,77.45,11.83
55,presidente medici,0,BR,1562272238,57,-11.18,-61.9,87.11,3.83
56,neftekamsk,29,RU,1562272174,93,56.1,54.26,51.54,6.17
57,gurmatkal,100,IN,1562272238,80,16.87,77.4,77.36,12.75
58,leningradskiy,100,RU,1562272239,97,69.38,178.42,35.83,2.68
59,newcastle,40,AU,1562271965,87,-32.93,151.78,61.0,4.7
60,iqaluit,40,CA,1562272239,70,63.75,-68.52,48.2,18.34
61,santa vitoria do palmar,17,BR,1562272231,69,-33.52,-53.37,43.88,13.4
62,tiksi,100,RU,1562272240,89,71.64,128.87,36.75,5.08
63,talcahuano,0,CL,1562272240,62,-36.72,-73.12,55.4,12.75
64,ushuaia,0,AR,1562272240,86,-54.81,-68.31,28.4,5.14
65,athens,0,GR,1562272134,30,37.98,23.73,87.01,6.93
66,thompson,75,CA,1562272241,76,55.74,-97.86,55.4,14.99
67,tuktoyaktuk,90,CA,1562272241,87,69.44,-133.03,50.0,25.28
68,jammalamadugu,100,IN,1562272241,61,14.85,78.38,82.63,22.3
69,bathsheba,75,BB,1562272039,88,13.22,-59.52,78.8,23.04
70,kapaa,20,US,1562272242,69,22.08,-159.32,82.4,6.93
71,vaini,99,IN,1562272242,89,15.34,74.49,78.11,7.11
72,cherskiy,93,RU,1562272243,50,68.75,161.3,53.43,5.44
73,saint-pierre,1,FR,1562272243,52,48.95,4.24,73.4,8.05
74,willmar,1,US,1562272244,61,45.12,-95.04,82.4,5.82
75,portland,75,US,1562272244,48,43.66,-70.25,91.99,8.05
76,zarechnyy,90,RU,1562272244,96,60.99,40.4,52.01,7.58
77,rabo de peixe,75,PT,1562272244,88,37.8,-25.58,64.4,3.36
78,yellowknife,20,CA,1562271978,43,62.45,-114.38,69.8,3.36
79,marzuq,96,YE,1562272245,31,14.4,46.47,81.23,6.85
80,sao joao da barra,40,BR,1562272245,78,-21.64,-41.05,77.0,13.87
81,walvis bay,0,NA,1562272245,56,-22.95,14.51,68.0,2.24
82,cabo san lucas,5,MX,1562272036,31,22.89,-109.91,97.0,16.11
83,honningsvag,75,NO,1562272246,81,70.98,25.97,48.2,6.93
84,yar-sale,94,RU,1562272246,77,66.83,70.83,65.94,7.2
85,san andres,71,PH,1562272247,88,13.32,122.68,74.66,0.31
86,spitsevka,75,RU,1562272247,82,45.12,42.5,71.01,11.18
87,virginia beach,75,US,1562271978,70,36.85,-75.98,97.0,12.75
88,lagoa,0,PT,1562272247,82,37.14,-8.45,68.0,13.87
89,hilo,90,US,1562272248,74,19.71,-155.08,82.99,5.82
90,dingle,72,PH,1562272248,85,11.0,122.67,74.64,2.89
91,arraial do cabo,40,BR,1562272248,88,-22.97,-42.02,71.6,6.93
92,qaanaaq,100,GL,1562272248,64,77.48,-69.36,42.44,3.51
93,port lincoln,0,AU,1562272249,72,-34.72,135.86,56.6,19.37
94,brigantine,1,US,1562272249,58,39.41,-74.36,90.0,13.87
95,balakirevo,0,RU,1562272250,78,56.51,38.84,46.2,9.08
96,alta,75,NO,1562272026,81,69.97,23.27,50.0,11.41
97,edenderry,75,IE,1562272250,63,53.34,-7.05,63.0,9.17
98,maniitsoq,99,GL,1562272250,79,65.42,-52.9,42.94,9.22
99,kerema,100,PG,1562272250,87,-7.96,145.78,76.49,10.4
100,esperantina,12,BR,1562272251,66,-3.89,-42.23,80.42,0.98
101,neuquen,40,AR,1562272251,66,-38.95,-68.06,48.2,3.36
102,okhotsk,100,RU,1562272251,94,59.36,143.24,48.25,12.53
103,yelizovo,90,RU,1562272252,100,53.19,158.38,48.2,4.47
104,kahului,40,US,1562271970,48,20.89,-156.47,87.8,11.41
105,praia da vitoria,75,PT,1562272207,83,38.73,-27.07,71.01,7.34
106,gonaives,20,HT,1562272252,66,19.45,-72.68,86.0,13.87
107,afsin,0,TR,1562272252,79,38.25,36.91,55.63,3.91
108,berlevag,75,NO,1562272253,81,70.86,29.09,48.2,5.82
109,barentu,100,ER,1562272253,63,15.11,37.59,79.07,5.66
110,ostrovnoy,100,RU,1562271989,96,68.05,39.51,49.17,10.49
111,ranfurly,91,CA,1562272253,59,53.41,-111.68,63.82,5.59
112,tasiilaq,3,GL,1562272253,61,65.61,-37.64,50.0,5.82
113,khatanga,84,RU,1562272254,79,71.98,102.47,46.72,7.96
114,saint-denis,0,FR,1562272254,43,48.94,2.36,73.4,5.82
115,port elizabeth,1,US,1562272254,58,39.31,-74.98,91.0,8.05
116,blytheville,40,US,1562272007,52,35.93,-89.92,91.99,11.41
117,tacuarembo,38,UY,1562272166,75,-31.73,-55.98,43.61,9.84
118,sola,66,TZ,1562272255,41,-3.17,33.8,73.07,4.56
119,teahupoo,75,PF,1562272255,53,-17.83,-149.27,77.0,12.75
120,ponta do sol,100,BR,1562272255,67,-20.63,-46.0,65.76,5.35
121,east london,0,ZA,1562272256,77,-33.02,27.91,51.17,3.47
122,axim,100,GH,1562272256,88,4.87,-2.24,76.98,9.95
123,zyryanka,100,RU,1562272256,94,65.73,150.89,49.73,1.7
124,tautira,75,PF,1562272256,53,-17.73,-149.15,77.0,12.75
125,puerto leguizamo,8,CO,1562272257,68,-0.19,-74.78,84.81,2.53
126,upernavik,0,GL,1562272257,70,72.79,-56.15,43.52,10.27
127,puerto ayora,20,EC,1562272258,61,-0.74,-90.35,78.8,19.46
128,norfolk,1,US,1562272158,52,36.85,-76.29,97.0,8.05
129,owando,81,CG,1562272258,90,-0.49,15.91,74.69,2.51
130,la palma,19,CO,1562272258,50,5.36,-74.39,87.44,2.62
131,broken hill,0,AU,1562272259,81,-31.97,141.45,48.2,11.41
132,alofi,75,NU,1562272018,78,-19.06,-169.92,75.2,14.99
133,saint-francois,0,FR,1562272259,71,46.42,3.91,69.01,4.76
134,pitsunda,90,GE,1562272259,78,43.16,40.34,77.0,4.47
135,chokurdakh,84,RU,1562272260,70,70.62,147.9,49.71,7.87
136,rawson,0,AR,1562272260,51,-43.3,-65.11,34.35,7.85
137,tuatapere,73,NZ,1562272260,95,-46.13,167.69,41.0,1.01
138,carnarvon,64,ZA,1562272260,33,-30.97,22.13,47.03,10.13
139,hualmay,17,PE,1562272260,84,-11.1,-77.61,62.52,12.88
140,korem,100,ET,1562272261,60,12.51,39.52,63.5,4.07
141,fuerte olimpo,100,BR,1562272261,95,-21.04,-57.87,55.52,7.29
142,beisfjord,75,NO,1562272261,87,68.38,17.6,50.0,9.17
143,atasu,58,KZ,1562272262,67,48.68,71.64,66.23,5.5
144,westerland,90,NL,1562272262,72,52.89,4.93,64.99,8.05
145,kavieng,100,PG,1562272262,72,-2.57,150.8,83.03,10.89
146,oktyabrskoye,0,RU,1562272263,88,56.73,85.44,64.0,6.71
147,ribeira grande,20,PT,1562272263,64,38.52,-28.7,71.6,9.17
148,aswan,0,EG,1562272263,7,24.09,32.9,91.4,10.29
149,heihe,75,RU,1562272263,100,50.24,127.51,57.2,6.71
150,dandong,38,CN,1562272264,98,40.12,124.37,66.93,7.76
151,longyearbyen,75,NO,1562272264,61,78.22,15.63,48.2,28.86
152,mount gambier,0,AU,1562272265,100,-37.83,140.78,39.2,6.93
153,georgetown,40,GY,1562272265,74,6.8,-58.16,87.8,13.87
154,smithers,75,CA,1562272234,63,54.78,-127.17,66.2,4.38
155,grand gaube,40,MU,1562272024,78,-20.01,57.66,71.6,6.93
156,nhulunbuy,9,AU,1562272027,93,-12.18,136.78,66.2,1.12
157,daru,76,PG,1562272266,87,-9.07,143.21,73.29,5.7
158,salalah,75,OM,1562272266,88,17.01,54.1,82.4,3.36
159,victoria,75,BN,1562271990,94,5.28,115.24,78.8,7.29
160,harlingen,90,NL,1562272266,77,53.18,5.41,64.4,5.82
161,tshikapa,0,CD,1562272266,28,-6.42,20.79,72.03,1.97
162,moose factory,20,CA,1562272034,35,51.26,-80.61,87.8,11.41
163,santa maria,0,BR,1562272267,30,-16.02,-48.01,82.4,9.17
164,goderich,23,CA,1562272268,55,43.74,-81.71,88.0,5.99
165,guerrero negro,0,MX,1562272025,85,27.97,-114.04,65.08,15.1
166,hailar,100,CN,1562272268,90,49.2,119.7,51.22,17.16
167,salinas,1,US,1562272268,49,36.67,-121.66,81.0,11.41
168,brae,97,GB,1562272268,81,60.4,-1.35,51.8,6.93
169,mulege,0,MX,1562272269,43,26.88,-111.98,91.31,16.98
170,opuwo,0,NA,1562272269,26,-18.06,13.84,57.2,6.82
171,ikryanoye,75,RU,1562272269,73,46.1,47.74,75.2,2.24
172,ferry pass,40,US,1562272212,52,30.51,-87.21,98.01,11.41
173,udachnyy,75,RU,1562272270,87,66.42,112.4,57.2,4.47
174,pangnirtung,75,CA,1562272270,70,66.15,-65.72,48.2,13.87
175,kieta,56,PG,1562272270,79,-6.22,155.63,79.39,5.75
176,le vauclin,25,MQ,1562272270,83,14.55,-60.84,82.4,11.41
177,cockburn town,40,TC,1562272270,66,21.46,-71.14,89.6,13.87
178,la ronge,90,CA,1562272271,59,55.1,-105.3,60.8,14.99
179,avarua,49,CK,1562272022,68,-21.21,-159.78,71.6,14.99
180,kajaani,0,FI,1562272271,67,64.22,27.73,57.2,8.05
181,buraydah,0,SA,1562272271,20,26.33,43.97,93.2,4.7
182,bethel,90,US,1562272272,93,60.79,-161.76,55.4,4.7
183,kurmanayevka,0,RU,1562272272,77,52.51,52.07,59.39,6.29
184,port hardy,90,CA,1562272272,82,50.7,-127.42,57.2,9.17
185,narsaq,75,GL,1562272272,39,60.91,-46.05,62.6,9.17
186,rojhan,0,PK,1562272273,36,28.69,69.95,94.44,9.78
187,san patricio,24,PY,1562272273,66,-26.98,-56.83,52.03,7.38
188,laguna,20,BZ,1562272273,52,16.17,-88.94,91.4,4.7
189,padang,95,ID,1562272274,82,-0.92,100.36,81.41,4.81
190,torbay,90,CA,1562272216,93,47.66,-52.73,57.2,5.82
191,katsuura,75,JP,1562272274,94,33.93,134.5,71.6,3.36
192,camacha,75,PT,1562272274,77,33.08,-16.33,69.8,11.41
193,manzanillo,40,MX,1562272274,70,19.05,-104.32,87.8,11.41
194,gushikawa,90,JP,1562272275,100,26.35,127.87,80.6,17.22
195,hamilton,20,CA,1562272190,66,43.26,-79.87,88.0,9.17
196,colares,20,PT,1562272275,88,38.8,-9.45,66.2,6.93
197,nouadhibou,0,MR,1562272276,73,20.93,-17.03,69.8,19.46
198,grindavik,75,IS,1562272145,81,63.84,-22.43,55.0,17.22
199,gopalpur,83,BD,1562272276,80,24.18,89.13,83.55,6.15
200,vardo,20,US,1562272276,58,39.62,-77.74,91.4,11.41
201,emba,0,CY,1562272277,78,34.81,32.42,78.8,5.82
202,rincon,40,PA,1562272277,70,8.46,-82.28,87.8,10.29
203,tanete,0,ID,1562272277,83,-3.94,119.78,77.82,14.79
204,port-gentil,90,GA,1562272277,94,-0.72,8.78,73.4,9.17
205,fukue,75,JP,1562272278,88,35.03,136.69,78.01,3.36
206,saint george,20,GR,1562272202,39,39.45,22.34,80.6,8.05
207,barabinsk,60,RU,1562272278,92,55.35,78.35,57.3,7.92
208,faya,0,SA,1562272279,68,18.39,42.45,71.6,4.7
209,bayji,0,IQ,1562272279,18,34.93,43.49,86.46,5.99
210,bonthe,100,SL,1562272279,89,7.53,-12.5,77.66,8.52
211,leh,95,IN,1562272279,55,34.16,77.58,35.76,4.34
212,nome,1,US,1562271994,74,30.04,-94.42,91.99,8.05
213,pimentel,33,BR,1562272280,92,-3.7,-45.5,77.18,2.53
214,hithadhoo,71,MV,1562272280,80,-0.6,73.08,83.39,12.88
215,myitkyina,100,MM,1562272280,99,25.38,97.4,73.14,2.04
216,viedma,38,AR,1562272281,71,-40.81,-62.99,41.5,12.93
217,antigonish,1,CA,1562272281,64,45.62,-61.99,75.0,12.75
218,talnakh,0,RU,1562272281,81,69.49,88.39,51.8,20.13
219,soyo,0,AO,1562272282,83,-6.13,12.37,73.4,3.36
220,honiara,20,SB,1562272282,100,-9.43,159.96,71.6,7.11
221,geraldton,75,CA,1562272282,94,49.72,-86.95,71.6,3.36
222,belomorsk,100,RU,1562272283,97,64.52,34.76,53.47,6.44
223,bolkhov,0,RU,1562272283,86,53.44,36.0,48.43,8.08
224,klaksvik,100,FO,1562272283,100,62.23,-6.59,48.2,10.29
225,gizo,0,IL,1562272283,69,31.8,34.94,80.01,5.82
226,mubi,100,NG,1562272284,87,10.27,13.26,74.66,6.69
227,ta khmau,40,KH,1562272285,83,11.48,104.95,78.8,4.7
228,codrington,75,AU,1562272285,93,-28.95,153.24,60.8,5.82
229,constitucion,75,MX,1562272285,21,23.99,-104.67,80.6,8.05
230,boden,0,SE,1562272286,76,65.83,21.69,55.4,2.24
231,saskylakh,98,RU,1562272286,90,71.97,114.09,46.38,13.27
232,shenzhen,40,CN,1562272286,83,22.54,114.05,84.2,6.71
233,redlands,5,US,1562272287,28,34.06,-117.19,88.0,9.17
234,nikolskoye,0,RU,1562272287,66,59.7,30.79,53.6,6.71
235,clyde river,75,CA,1562272287,93,70.47,-68.59,37.4,6.93
236,seoul,1,KR,1562272113,82,37.57,126.98,68.0,1.12
237,ngorongoro,72,TZ,1562272288,61,-3.24,35.49,65.62,16.69
238,krasnokamensk,100,RU,1562272288,52,50.1,118.04,52.03,14.14
239,lompoc,90,US,1562272288,77,34.64,-120.46,79.0,14.99
240,maceio,20,BR,1562272288,74,-9.67,-35.74,80.6,6.93
241,labuhan,0,ID,1562272289,93,-2.54,115.51,70.57,2.08
242,marsabit,22,KE,1562272289,34,2.34,37.99,83.17,19.57
243,srednekolymsk,100,RU,1562272289,74,67.46,153.71,52.12,9.82
244,qaqortoq,75,GL,1562272290,39,60.72,-46.03,62.6,9.17
245,taft,76,PH,1562272290,95,11.9,125.42,71.2,2.39
246,codajas,100,BR,1562272290,85,-3.84,-62.06,81.68,1.7
247,vestmannaeyjar,6,IS,1562272291,86,63.44,-20.27,51.6,14.94
248,airai,0,TL,1562272291,76,-8.93,125.41,64.2,5.03
249,manjeshwar,40,IN,1562272291,83,12.72,74.89,82.4,6.93
250,biak,100,ID,1562272291,98,-0.91,122.88,63.3,3.6
251,gayny,1,RU,1562272292,98,60.3,54.33,50.3,5.57
252,alta floresta,40,BR,1562272292,38,-9.87,-56.08,91.4,5.82
253,ishigaki,100,JP,1562272292,82,24.34,124.16,84.83,25.05
254,coahuayana,100,MX,1562272292,57,18.62,-100.35,89.78,1.25
255,mongo,18,CD,1562272293,63,-5.62,14.6,74.87,7.07
256,isangel,20,VU,1562272293,94,-19.55,169.27,68.0,9.42
257,kurchum,62,KZ,1562272293,57,48.57,83.65,59.97,6.29
258,halifax,20,CA,1562272176,54,44.65,-63.58,84.0,6.93
259,ulaangom,100,MN,1562272294,47,49.98,92.07,60.67,1.34
260,kodiak,1,US,1562272294,42,39.95,-94.76,84.0,9.17
261,westport,1,US,1562272294,58,41.14,-73.36,91.0,8.05
262,salina cruz,68,MX,1562272295,64,16.18,-95.2,86.18,8.52
263,puerto narino,20,CO,1562272295,58,-3.77,-70.38,87.8,5.82
264,mandalgovi,47,MN,1562272295,72,45.76,106.27,58.11,13.29
265,caravelas,0,BR,1562272296,82,-17.73,-39.27,77.18,9.64
266,maragogi,0,BR,1562272296,93,-9.01,-35.22,73.74,4.43
267,tarpon springs,40,US,1562272296,78,28.15,-82.76,89.01,11.36
268,provideniya,75,RU,1562272008,87,64.42,-173.23,46.4,6.71
269,hay river,20,CA,1562272297,72,60.82,-115.79,59.0,5.82
270,rio hato,40,PA,1562272297,59,8.38,-80.16,91.4,11.41
271,laela,18,TZ,1562272297,67,-8.57,32.05,56.17,4.92
272,saint-augustin,20,CA,1562272013,45,45.63,-73.98,93.0,6.93
273,muros,75,ES,1562272298,72,42.77,-9.06,69.01,2.24
274,moerai,84,PF,1562272298,68,-22.43,-151.33,69.13,28.66
275,lethem,14,GY,1562272298,55,3.38,-59.8,89.06,9.42
276,tottori,100,JP,1562272299,83,35.5,134.23,68.61,1.77
277,severo-kurilsk,100,RU,1562272299,98,50.68,156.12,42.35,7.9
278,petropavlovsk-kamchatskiy,90,RU,1562272299,100,53.05,158.65,48.2,4.47
279,hasaki,75,JP,1562272299,93,35.73,140.83,66.2,5.82
280,fairbanks,90,US,1562272188,59,64.84,-147.72,66.2,6.93
281,sitka,0,US,1562272300,43,37.17,-99.65,93.99,14.0
282,lima,90,PE,1562272300,77,-12.06,-77.04,64.4,8.05
283,martorell,100,ES,1562272300,74,41.48,1.93,81.0,4.7
284,souillac,0,FR,1562272301,51,45.6,-0.6,84.2,6.93
285,vila franca do campo,75,PT,1562272301,88,37.72,-25.43,64.4,3.36
286,fortuna,20,ES,1562272011,88,38.18,-1.13,79.0,8.05
287,parit buntar,75,MY,1562272301,88,5.13,100.49,82.4,1.12
288,arvika,0,SE,1562272302,57,59.65,12.59,52.0,10.29
289,luis correia,20,BR,1562272302,70,-2.88,-41.67,86.0,13.87
290,college,90,US,1562272205,59,64.86,-147.8,66.2,6.93
291,manica,0,MZ,1562272302,87,-18.94,32.88,57.2,3.96
292,beidao,0,CN,1562272303,93,34.57,105.89,56.1,4.03
293,novo aripuana,33,BR,1562272303,70,-5.12,-60.38,84.48,4.07
294,nioro,0,GM,1562272303,53,13.79,-15.05,85.02,14.52
295,nanfeng,100,CN,1562272304,99,27.22,116.52,73.5,2.66
296,gravdal,20,NO,1562272304,71,59.79,5.78,53.01,16.11
297,santa isabel do rio negro,100,BR,1562272304,95,-0.41,-65.02,78.54,2.15
298,henties bay,0,NA,1562272304,88,-22.12,14.28,55.99,5.01
299,alakurtti,93,RU,1562272305,92,66.96,30.34,51.01,1.01
300,rocha,4,UY,1562272305,76,-34.48,-54.34,40.17,13.73
301,aksu,0,KZ,1562272305,100,52.04,76.93,57.2,4.47
302,vao,64,EE,1562272306,92,59.1,26.19,46.59,6.02
303,maymyo,100,MM,1562272306,66,22.03,96.47,81.75,11.41
304,dalby,90,AU,1562272306,82,-27.18,151.26,57.2,14.99
305,kailua,40,US,1562272307,62,21.39,-157.74,86.0,5.82
306,ilulissat,40,GL,1562272307,65,69.22,-51.1,55.4,6.93
307,amahai,86,ID,1562272307,92,-3.31,129.0,79.0,1.01
308,kruisfontein,100,ZA,1562272307,76,-34.0,24.73,55.7,15.19
309,kaitangata,85,NZ,1562272308,78,-46.28,169.85,43.0,3.0
310,tezu,91,IN,1562272308,88,27.93,96.16,75.2,0.94
311,nelson bay,40,AU,1562272308,87,-32.72,152.14,61.0,4.7
312,cape coast,100,GH,1562272215,90,5.11,-1.24,76.2,11.07
313,dale,100,CN,1562272309,92,24.09,109.99,76.78,5.23
314,ternate,40,PH,1562272309,78,14.29,120.72,82.4,4.7
315,kulhudhuffushi,99,MV,1562272309,77,6.62,73.07,83.28,11.48
316,semey,52,KZ,1562272310,63,50.41,80.25,67.19,3.44
317,donskoye,75,RU,1562272310,82,45.45,41.98,71.01,11.18
318,eyl,50,SO,1562272310,66,7.98,49.82,78.04,24.92
319,fez,40,MA,1562272310,47,34.03,-5.02,77.0,12.75
320,margate,90,AU,1562272311,93,-43.03,147.26,39.99,5.82
321,pisco,75,PE,1562272311,30,-13.71,-76.2,71.6,9.17
322,phan thiet,26,VN,1562272311,94,10.93,108.1,71.9,4.29
323,vila velha,0,BR,1562272311,69,-3.71,-38.6,86.0,13.87
324,san cristobal,0,HN,1562272312,28,14.68,-86.92,85.24,12.53
325,buala,14,SB,1562272312,81,-8.15,159.59,79.97,8.34
326,esperance,90,AU,1562272312,100,-33.86,121.89,51.8,8.05
327,tahoua,92,NE,1562272313,43,14.89,5.26,92.1,15.61
328,bagaha,100,IN,1562272306,71,27.1,84.09,86.82,8.66
329,amarpur,100,IN,1562272313,95,23.52,91.65,77.82,5.68
330,quatre cocos,40,MU,1562272313,78,-20.21,57.76,71.6,6.93
331,acapulco,75,MX,1562272314,74,16.86,-99.88,87.8,6.93
332,nanortalik,0,GL,1562272314,65,60.14,-45.24,46.81,7.67
333,conakry,75,GN,1562272314,83,9.52,-13.7,82.4,9.17
334,cajabamba,20,EC,1562272314,43,-1.7,-78.77,69.8,23.04
335,luwuk,100,ID,1562272315,98,-0.95,122.79,63.3,3.6
336,yaritagua,40,VE,1562272315,45,10.08,-69.12,86.0,6.93
337,mandali,0,IQ,1562272315,14,33.75,45.55,85.22,7.31
338,keuruu,0,FI,1562272316,58,62.26,24.71,55.4,4.7
339,muroto,96,JP,1562272316,86,33.37,134.14,69.65,4.99
340,podosinovets,100,RU,1562272316,98,60.28,47.06,50.7,6.29
341,socorro,20,US,1562272317,14,31.65,-106.3,100.0,16.11
342,avera,1,US,1562272317,52,33.19,-82.53,96.01,5.82
343,kulunda,95,RU,1562272317,74,52.57,78.94,62.25,7.16
344,kavaratti,100,IN,1562272317,79,10.57,72.64,83.3,19.1
345,mulanje,0,MW,1562272318,89,-16.03,35.5,54.1,4.97
346,kununurra,0,AU,1562272318,36,-15.77,128.74,60.8,8.05
347,kalianget,15,ID,1562272318,97,-7.35,109.91,71.04,0.49
348,mahajanga,0,MG,1562272318,88,-15.72,46.32,71.6,2.24
349,roald,20,NO,1562272319,76,62.58,6.12,51.8,3.36
350,lasa,0,CY,1562272319,78,34.92,32.53,78.8,5.82
351,kichmengskiy gorodok,97,RU,1562272319,99,59.99,45.81,51.18,3.2
352,kurilsk,100,RU,1562272320,96,45.23,147.88,50.36,12.3
353,west point,40,US,1562272150,2,33.61,-88.65,91.4,4.38
354,gabu,0,CN,1562272320,80,34.78,103.0,40.13,1.7
355,bilma,7,NE,1562272320,28,18.69,12.92,92.44,5.1
356,cruzeiro do sul,75,BR,1562272321,52,-7.63,-72.67,91.4,5.82
357,manado,40,ID,1562272321,100,1.49,124.85,73.4,5.99
358,goure,82,NE,1562272321,35,13.98,10.27,92.51,8.7
359,kyren,0,RU,1562272321,76,51.68,102.13,39.63,3.13
360,ust-kuyga,67,RU,1562272322,67,70.0,135.55,48.81,3.44
361,port blair,100,IN,1562272075,81,11.67,92.75,83.85,21.21
362,nieuw amsterdam,40,SR,1562272322,66,5.88,-55.08,86.0,13.87
363,tabou,100,CI,1562272322,88,4.42,-7.36,74.64,5.59
364,tilichiki,86,RU,1562272323,69,60.47,166.1,59.07,2.37
365,yinchuan,0,CN,1562272323,21,38.48,106.21,73.0,1.01
366,nzega,86,TZ,1562272323,37,-4.22,33.19,73.5,4.47
367,valle de allende,67,MX,1562272323,29,26.94,-105.39,83.22,9.51
368,kayerkan,0,RU,1562272324,81,69.35,87.76,51.8,20.13
369,thunder bay,75,CA,1562272324,73,48.41,-89.26,80.01,8.05
370,lavrentiya,99,RU,1562272324,68,65.58,-170.99,56.76,11.48
371,north platte,75,US,1562272217,61,41.12,-100.77,80.6,9.17
372,taperoa,2,BR,1562272326,49,-7.21,-36.83,80.9,14.63
373,saurimo,0,AO,1562272326,39,-9.66,20.4,63.93,3.06
374,ixtapa,40,MX,1562272326,38,20.71,-105.21,89.6,13.87
375,beloha,0,MG,1562272327,96,-25.17,45.06,63.03,6.96
376,emirdag,0,TR,1562272327,52,39.02,31.15,67.47,6.6
377,dharmabad,100,IN,1562272327,82,18.89,77.84,78.31,7.74
378,havre-saint-pierre,20,CA,1562272327,68,50.23,-63.6,66.2,16.11
379,ilorin,100,NG,1562272328,89,8.5,4.55,73.88,9.6
380,healdsburg,1,US,1562272328,39,38.61,-122.87,91.99,5.82
381,tucumcari,1,US,1562272328,20,35.17,-103.73,98.6,11.41
382,byron bay,90,AU,1562272328,87,-28.65,153.62,64.99,14.99
383,meybod,0,IR,1562272329,14,32.25,54.02,95.0,9.17
384,tazovskiy,100,RU,1562272329,64,67.47,78.7,58.69,10.87
385,sao filipe,68,CV,1562272329,86,14.9,-24.5,73.81,17.9
386,juneau,40,US,1562272330,64,58.3,-134.42,71.6,10.29
387,port hawkesbury,1,CA,1562272330,64,45.62,-61.36,75.0,12.75
388,trang,94,TH,1562272330,88,7.56,99.61,74.91,2.64
389,rognan,75,NO,1562272330,100,67.1,15.4,48.99,11.41
390,coaldale,90,CA,1562272057,67,49.73,-112.62,60.8,8.05
391,shache,0,CN,1562272332,97,38.42,77.24,75.0,6.42
392,saint-joseph,0,FR,1562272332,74,43.56,6.97,80.6,2.62
393,kaya,92,NG,1562272332,36,13.31,12.68,90.12,11.59
394,strezhevoy,0,RU,1562272333,93,60.73,77.6,66.2,4.47
395,ludvika,100,SE,1562272333,93,60.15,15.18,48.99,8.05
396,tomatlan,1,MX,1562272333,56,19.93,-105.25,87.11,8.5
397,ban nahin,100,LA,1562272334,99,18.24,104.21,71.99,4.07
398,pozo colorado,100,PY,1562272334,49,-23.49,-58.8,56.44,7.31
399,bogorodskoye,36,RU,1562272334,91,52.37,140.44,54.32,10.38
400,lorengau,99,PG,1562272334,83,-2.02,147.27,77.97,3.76
401,minab,0,IR,1562272335,66,27.15,57.07,91.4,3.11
402,zhanakorgan,0,KZ,1562272335,36,43.91,67.25,77.43,4.12
403,teya,40,MX,1562272335,52,21.05,-89.07,93.99,5.82
404,buchanan,75,LR,1562272336,94,5.88,-10.05,77.0,17.81
405,rundu,0,NA,1562272336,36,-17.91,19.77,60.8,3.36
406,taoudenni,8,ML,1562272336,12,22.68,-3.98,105.18,13.27
407,yilan,99,CN,1562272337,94,43.11,129.52,59.81,3.04
408,robertsport,100,LR,1562272337,90,6.75,-11.37,77.46,9.98
409,gueret,0,FR,1562272139,50,46.17,1.87,78.8,6.93
410,pevek,100,RU,1562272337,93,69.7,170.27,35.06,11.63
411,ontario,1,US,1562272338,50,34.07,-117.65,84.99,9.17
412,half moon bay,90,US,1562272338,87,37.46,-122.43,79.0,4.7
413,prince rupert,1,CA,1562272222,82,54.32,-130.32,60.8,8.05
414,hornepayne,0,CA,1562272338,29,49.22,-84.78,87.9,12.77
415,beterou,100,BJ,1562272339,95,9.2,2.26,73.16,5.95
416,arlit,8,NE,1562272339,26,18.74,7.39,97.28,16.6
417,ormara,32,PK,1562272339,84,25.21,64.64,81.78,10.22
418,pirapozinho,90,BR,1562272339,88,-22.27,-51.5,69.8,6.93
419,charlottetown,40,CA,1562272146,56,46.23,-63.13,79.0,8.05
420,adrar,0,DZ,1562272340,8,27.87,-0.29,109.4,21.92
421,coihaique,75,CL,1562272340,99,-45.58,-72.07,42.8,3.6
422,ozernovskiy,83,RU,1562272340,97,51.5,156.52,43.21,2.37
423,ostrov,32,RU,1562272341,62,57.34,28.36,55.4,8.95
424,lakes entrance,9,AU,1562272341,96,-37.88,147.99,37.0,3.24
425,sorokino,52,RU,1562272341,86,51.22,37.86,52.82,7.76
426,pochutla,75,MX,1562272342,59,15.74,-96.47,91.4,14.99
427,bagotville,90,AU,1562272342,87,-28.98,153.42,60.8,14.99
428,tabory,100,PL,1562272342,53,53.89,19.53,64.0,16.91
429,south lake tahoe,1,US,1562272052,37,38.93,-119.98,84.0,4.7
430,norman wells,90,CA,1562272074,43,65.28,-126.83,71.6,5.82
431,petropavlovskoye,75,RU,1562272343,93,46.79,142.5,51.8,2.24
432,muncar,94,ID,1562272343,98,-8.43,114.34,71.4,2.42
433,vanimo,68,PG,1562272343,82,-2.67,141.3,79.41,10.09
434,belaya gora,100,RU,1562272344,86,68.54,146.19,49.92,9.35
435,cayenne,75,GF,1562272344,74,4.94,-52.33,84.2,10.29
436,myre,100,SE,1562272344,81,62.25,17.37,48.99,1.12
437,kidal,95,ML,1562272344,12,18.44,1.41,98.96,5.37
438,baghdad,0,IQ,1562272274,22,33.3,44.38,87.8,4.7
439,atar,10,MR,1562272345,9,20.52,-13.05,104.55,17.07
440,huicungo,20,PE,1562272345,56,-7.28,-76.8,93.2,3.51
441,ostersund,75,SE,1562272346,87,63.18,14.64,46.99,9.17
442,san quintin,57,PH,1562272346,88,17.54,120.52,74.89,2.64
443,cabatuan,51,PH,1562272346,89,16.95,121.67,73.52,0.47
444,omaruru,0,NA,1562272346,17,-21.42,15.95,54.91,5.55
445,mecca,0,SA,1562272055,41,21.43,39.83,83.82,5.32
446,ulaanbaatar,0,MN,1562272347,67,47.92,106.92,57.2,11.18
447,marsa matruh,40,EG,1562272347,78,31.35,27.25,78.8,5.82
448,znamenskoye,4,RU,1562272347,98,57.13,73.82,53.85,2.57
449,west wendover,1,US,1562272348,25,40.74,-114.07,77.0,9.17
450,poli,42,CM,1562272348,90,8.48,13.24,73.85,2.17
451,karakol,0,KG,1562272348,61,42.49,78.39,57.2,5.97
452,fort nelson,75,CA,1562272349,45,58.81,-122.69,66.2,6.93
453,gondanglegi,38,ID,1562272349,94,-7.75,112.01,71.24,5.66
454,ipixuna,40,BR,1562272349,94,-1.76,-48.8,75.2,4.7
455,victor harbor,0,AU,1562272350,93,-35.55,138.62,52.0,5.82
456,acandi,20,CO,1562272350,70,8.51,-77.28,83.1,5.84
457,maputo,0,MZ,1562272107,45,-25.97,32.57,66.2,10.29
458,kasama,35,ZM,1562272350,67,-10.21,31.19,59.66,5.3
459,inhambane,0,MZ,1562272351,82,-23.87,35.38,64.4,4.74
460,naranjito,20,PR,1562272351,66,18.3,-66.25,89.6,17.22
461,burriana,0,ES,1562272351,65,39.89,-0.08,82.4,4.7
462,omsukchan,0,RU,1562272351,43,62.53,155.8,60.45,10.63
463,mogok,100,MM,1562272352,93,22.92,96.51,69.47,3.58
464,esil,0,KZ,1562272352,75,51.96,66.41,62.76,4.88
465,alghero,0,IT,1562272199,88,40.56,8.32,78.8,6.93
466,lardos,20,GR,1562272352,88,36.09,28.02,77.0,10.29
467,alibag,75,IN,1562272353,89,18.64,72.88,84.2,6.93
468,the valley,75,AI,1562272353,66,18.22,-63.06,87.8,16.11
469,tiznit,0,MA,1562272354,86,29.7,-9.73,66.56,9.98
470,port hueneme,40,US,1562272354,73,34.15,-119.2,81.0,12.75
471,nemuro,100,JP,1562272355,97,43.32,145.57,51.45,11.16
472,arkadak,0,RU,1562272355,81,51.94,43.49,51.92,5.99
473,mayahi,90,NE,1562272355,39,13.95,7.67,93.77,9.84
474,salisbury,99,GB,1562272355,49,51.07,-1.8,73.4,3.36
475,tommot,100,RU,1562272356,73,58.97,126.27,49.44,5.95
476,carbondale,20,US,1562272120,74,38.82,-95.69,84.0,8.05
477,sao jose da coroa grande,0,BR,1562272356,93,-8.9,-35.15,73.74,4.43
478,paamiut,70,GL,1562272357,79,61.99,-49.67,45.05,1.72
479,sinnamary,0,GF,1562272357,80,5.38,-52.96,81.39,15.3
480,turukhansk,0,RU,1562272357,63,65.8,87.96,66.75,7.54
481,kirkland lake,1,CA,1562272357,35,48.15,-80.03,87.8,16.11
482,ocean city,1,US,1562272338,70,30.44,-86.61,99.0,5.82
483,libertador general san martin,95,AR,1562272358,50,-23.81,-64.79,57.07,3.85
484,bonavista,100,CA,1562272358,79,48.65,-53.11,50.0,1.99
485,sept-iles,75,CA,1562272247,64,50.2,-66.38,69.8,8.05
486,aksarka,99,RU,1562272359,83,66.56,67.8,66.09,1.3
487,los llanos de aridane,75,ES,1562272286,73,28.66,-17.92,71.6,9.17
488,mega,0,ET,1562272359,48,4.06,38.32,73.5,12.48
489,masaki,75,JP,1562272359,83,33.79,132.71,71.6,3.36
490,camocim,54,BR,1562272245,83,-2.9,-40.84,78.31,5.64
491,tonk,100,IN,1562272360,71,26.16,75.79,82.97,10.63
492,moree,0,AU,1562272360,76,-29.46,149.84,50.0,9.17
493,iberia,44,PE,1562272360,43,-11.41,-69.49,90.14,5.14
494,batemans bay,100,AU,1562272360,96,-35.71,150.18,50.0,5.99
495,qorveh,0,IR,1562272361,16,35.17,47.8,65.73,8.37
496,pergamino,0,AR,1562272361,45,-33.9,-60.57,48.0,4.0
497,izhma,68,RU,1562272361,97,65.01,53.91,57.23,3.51
498,nalut,0,LY,1562272362,40,31.86,10.98,80.2,10.09
499,livramento,75,BR,1562272362,88,-3.03,-60.18,77.0,3.36
500,hsinchu,75,TW,1562272283,74,24.8,120.97,86.0,18.34
501,oranjemund,0,ZA,1562272362,90,-28.55,16.43,56.03,8.39
502,altay,100,CN,1562272363,90,47.83,88.13,47.31,1.12
503,tsabong,0,BW,1562272363,49,-26.02,22.4,50.05,1.59
504,shingu,99,JP,1562272363,93,33.72,135.99,67.13,3.67
505,noumea,0,NC,1562272207,93,-22.28,166.46,62.6,12.01
506,tigil,0,RU,1562272364,61,57.8,158.67,57.54,0.74
507,polson,20,US,1562272119,49,47.69,-114.16,75.0,6.93
508,basoko,41,CD,1562272364,74,1.23,23.61,76.1,1.86
509,shaoxing,20,CN,1562272364,88,30.0,120.58,79.0,4.47
510,faanui,99,PF,1562272365,77,-16.48,-151.75,75.84,29.46
511,norton,1,US,1562272365,33,41.97,-71.19,91.4,8.05
512,sabha,0,LY,1562272365,12,27.03,14.43,90.68,2.19
513,cobija,40,BR,1562272366,49,-11.02,-68.77,93.2,11.41
514,umm lajj,0,SA,1562272366,62,25.02,37.27,86.3,7.83
515,flinders,90,AU,1562272366,100,-34.58,150.85,57.99,8.05
516,svetlogorsk,20,RU,1562272366,77,53.14,59.15,60.8,8.95
517,maraa,2,BR,1562272367,66,-1.83,-65.37,86.14,1.36
518,minbu,100,MM,1562272367,92,20.18,94.88,75.9,2.3
519,umarkot,0,PK,1562272367,76,25.37,69.74,83.75,21.81
520,nieuwpoort,100,BE,1562272367,77,51.13,2.75,64.4,1.12
521,grafton,32,AU,1562272368,100,-29.69,152.93,57.0,5.82
522,ayan,0,IR,1562272368,49,38.23,44.7,56.22,5.23
523,estancia,1,US,1562272368,11,34.76,-106.06,96.01,8.05
524,buin,0,CL,1562272369,33,-33.73,-70.74,62.6,1.12
525,quixeramobim,18,BR,1562272369,68,-5.2,-39.3,76.92,3.4
526,berdigestyakh,100,RU,1562272369,93,62.1,126.7,46.97,7.74
527,havoysund,75,NO,1562272369,81,71.0,24.66,48.2,6.93
528,bolu,0,TR,1562272217,95,40.73,31.61,61.79,0.76
529,ventspils,90,LV,1562272370,93,57.39,21.56,57.2,17.22
530,hearst,0,CA,1562272370,23,49.69,-83.67,92.03,12.08
531,ust-omchug,100,RU,1562272371,80,61.13,149.63,49.31,10.11
532,marystown,88,CA,1562272371,81,47.17,-55.16,54.87,11.01
533,yulara,0,AU,1562272371,56,-25.24,130.99,41.0,4.7
534,tutayev,90,RU,1562272371,93,57.89,39.54,50.0,17.9
535,rabat,20,MA,1562272320,68,34.02,-6.83,69.01,9.17
536,zhigansk,100,RU,1562272372,74,66.77,123.37,50.9,3.04
537,puerto cabezas,75,NI,1562272372,74,14.04,-83.39,87.8,9.17
538,merrill,1,US,1562272373,28,42.03,-121.6,75.0,8.05
539,xingyi,99,CN,1562272374,97,24.19,102.82,61.16,3.15
540,doha,0,QA,1562272182,32,25.29,51.53,98.6,10.29
541,awjilah,0,LY,1562272374,50,29.14,21.3,77.21,15.01
542,birao,0,CF,1562272375,66,10.3,22.78,79.62,5.03
